{"updated":"2026-05-30","restaurants":[{"name":"Smith \u0026 Wollensky GINZA","area":"銀座","genre":"ステーキハウス","note":"NY発老舗ステーキ日本初上陸","date":"2026-05-30","lat":35.6717,"lng":139.7654},{"name":"小麻辣","area":"下北沢","genre":"麻辣串","note":"韓国発の食べ歩き麻辣串日本初上陸","date":"2026-05-30","lat":35.6614,"lng":139.667},{"name":"魚三酒場","area":"門前仲町","genre":"大衆居酒屋","note":"昭和から続く新鮮魚介の名店","date":"2026-05-30","lat":35.6710236,"lng":139.7975703},{"name":"割烹 三友","area":"人形町","genre":"割烹","note":"人形町の隠れ名店として再発掘","date":"2026-05-30","lat":35.6828,"lng":139.7819},{"name":"酒場カミナリ","area":"高円寺","genre":"大衆酒場","note":"生牡蠣299円で話題の高コスパ","date":"2026-05-30","lat":35.7058,"lng":139.6489},{"name":"焼肉 牛8","area":"三軒茶屋","genre":"和牛焼肉","note":"上質な和牛を普段使い価格で","date":"2026-05-30","lat":35.6437,"lng":139.671},{"name":"白鶏舎","area":"笹塚","genre":"鶏料理","note":"昼ラーメン夜焼手羽の二毛作","date":"2026-05-30","lat":35.6698,"lng":139.6598},{"name":"鮨 上ル","area":"高輪ゲートウェイ","genre":"江戸前寿司","note":"食べ比べ×知的体験の次世代寿司","date":"2026-05-30","lat":35.6309,"lng":139.7415},{"name":"魚群 GYOGUN","area":"高田馬場","genre":"海鮮居酒屋","note":"産地直送魚介×クラフトビール","date":"2026-05-30","lat":35.7122,"lng":139.7036},{"name":"シアモ ノイ","area":"東京","genre":"イタリア料理","note":"自家栽培ハーブ・調味料自製ミシュラン","date":"2026-05-30","lat":35.6812,"lng":139.7671},{"name":"サンカ","area":"東京","genre":"フランス料理","note":"ミシュラン選出 素材×ソース×ワイン","date":"2026-05-30","lat":35.7087928,"lng":139.7582348},{"name":"お寅","area":"東京","genre":"日本料理","note":"ミシュラン選出 旬を10日単位で表現","date":"2026-05-30","lat":35.6812,"lng":139.7671},{"name":"ペルテ","area":"東京","genre":"ピッツァ","note":"ミシュラン選出 コース形式の創作ピッツァ","date":"2026-05-30","lat":35.6812,"lng":139.7671},{"name":"焼鳥 にしき","area":"東京","genre":"焼鳥","note":"ミシュラン選出 地鶏×鰹だしのお椀","date":"2026-05-30","lat":35.6812,"lng":139.7671},{"name":"慈雨","area":"東京","genre":"フレンチ","note":"ミシュラン選出 薪火だけのフレンチ","date":"2026-05-30","lat":35.660176,"lng":139.7638239},{"name":"ヴァンカ","area":"東京","genre":"現代風料理","note":"ミシュラン選出 鰹節×薪火の和仏融合","date":"2026-05-30","lat":35.6812,"lng":139.7671}]}