{"updated":"2026-06-05","restaurants":[{"name":"Smith \u0026 Wollensky GINZA","area":"銀座","genre":"ステーキハウス","note":"NY発老舗ステーキ日本初上陸","date":"2026-05-30","lat":35.6717,"lng":139.7654},{"name":"小麻辣","area":"下北沢","genre":"麻辣串","note":"韓国発の食べ歩き麻辣串日本初上陸","date":"2026-05-30","lat":35.6614,"lng":139.667},{"name":"魚三酒場","area":"門前仲町","genre":"大衆居酒屋","note":"昭和から続く新鮮魚介の名店","date":"2026-05-30","lat":35.6710236,"lng":139.7975703},{"name":"割烹 三友","area":"人形町","genre":"割烹","note":"人形町の隠れ名店として再発掘","date":"2026-05-30","lat":35.6828,"lng":139.7819},{"name":"酒場カミナリ","area":"高円寺","genre":"大衆酒場","note":"生牡蠣299円で話題の高コスパ","date":"2026-05-30","lat":35.7058,"lng":139.6489},{"name":"焼肉 牛8","area":"三軒茶屋","genre":"和牛焼肉","note":"上質な和牛を普段使い価格で","date":"2026-05-30","lat":35.6437,"lng":139.671},{"name":"白鶏舎","area":"笹塚","genre":"鶏料理","note":"昼ラーメン夜焼手羽の二毛作","date":"2026-05-30","lat":35.6698,"lng":139.6598},{"name":"鮨 上ル","area":"高輪ゲートウェイ","genre":"江戸前寿司","note":"食べ比べ×知的体験の次世代寿司","date":"2026-05-30","lat":35.6309,"lng":139.7415},{"name":"魚群 GYOGUN","area":"高田馬場","genre":"海鮮居酒屋","note":"産地直送魚介×クラフトビール","date":"2026-05-30","lat":35.7122,"lng":139.7036},{"name":"シアモ ノイ","area":"東京","genre":"イタリア料理","note":"自家栽培ハーブ・調味料自製ミシュラン","date":"2026-05-30","lat":35.6812,"lng":139.7671},{"name":"サンカ","area":"東京","genre":"フランス料理","note":"ミシュラン選出 素材×ソース×ワイン","date":"2026-05-30","lat":35.7087928,"lng":139.7582348},{"name":"お寅","area":"東京","genre":"日本料理","note":"ミシュラン選出 旬を10日単位で表現","date":"2026-05-30","lat":35.6812,"lng":139.7671},{"name":"ペルテ","area":"東京","genre":"ピッツァ","note":"ミシュラン選出 コース形式の創作ピッツァ","date":"2026-05-30","lat":35.6812,"lng":139.7671},{"name":"焼鳥 にしき","area":"東京","genre":"焼鳥","note":"ミシュラン選出 地鶏×鰹だしのお椀","date":"2026-05-30","lat":35.6812,"lng":139.7671},{"name":"慈雨","area":"東京","genre":"フレンチ","note":"ミシュラン選出 薪火だけのフレンチ","date":"2026-05-30","lat":35.660176,"lng":139.7638239},{"name":"ヴァンカ","area":"東京","genre":"現代風料理","note":"ミシュラン選出 鰹節×薪火の和仏融合","date":"2026-05-30","lat":35.6812,"lng":139.7671},{"name":"Brussels Fries（ブリュッセルフライ）","area":"新宿（新大久保）","station":"新大久保駅 徒歩5分","genre":"ベルギー式フライドポテト専門店","price_lunch":null,"price_dinner":"600円〜1,400円","open_date":"2025-12-01","official_url":"https://www.instagram.com/brussels_fries_jp/","michelin":null,"section":"buzz","date":"2026-06-05"},{"name":"amam dacotan cafe\u0026bake 表参道","area":"表参道（南青山）","station":"表参道駅 B2出口 徒歩1分","genre":"ベーカリーカフェ","price_lunch":"300円〜800円","price_dinner":null,"open_date":"2025-12-06","official_url":"https://amamdacotan.com/","michelin":null,"section":"buzz","date":"2026-06-05"},{"name":"珈琲所 コメダ珈琲店 KITTE大阪店","area":"大阪（梅田）","station":"JR大阪駅 直結（KITTE大阪内）","genre":"カフェ・喫茶","price_lunch":"540円〜","price_dinner":null,"open_date":"2026-06-12","official_url":"https://osaka.jp-kitte.jp/","michelin":null,"section":"new_open","date":"2026-06-05"},{"name":"明寂（Myojaku）","area":"東京（港区）","station":"非公開","genre":"日本料理","price_lunch":null,"price_dinner":"要問合せ","open_date":null,"official_url":"https://guide.michelin.com/us/en/tokyo-region/tokyo/restaurant/myojaku","michelin":"三つ星（ミシュランガイド東京2026）","section":"michelin","date":"2026-06-05"},{"name":"スイーツパラダイス 新宿東口店","area":"新宿","station":"新宿駅 東口 徒歩2分","genre":"コラボカフェ・スイーツバイキング","price_lunch":"1,980円〜","price_dinner":"2,200円〜","open_date":null,"official_url":"https://www.sweets-paradise.jp/collaboration/gintama2026","michelin":null,"section":"limited","limited_end":"2026-06-29","date":"2026-06-05"}]}