{"updated":"2026-06-26","restaurants":[{"name":"Smith \u0026 Wollensky GINZA","area":"銀座","genre":"ステーキハウス","note":"NY発老舗ステーキ日本初上陸","date":"2026-05-30","lat":35.6717,"lng":139.7654},{"name":"小麻辣","area":"下北沢","genre":"麻辣串","note":"韓国発の食べ歩き麻辣串日本初上陸","date":"2026-05-30","lat":35.6614,"lng":139.667},{"name":"魚三酒場","area":"門前仲町","genre":"大衆居酒屋","note":"昭和から続く新鮮魚介の名店","date":"2026-05-30","lat":35.6710236,"lng":139.7975703},{"name":"割烹 三友","area":"人形町","genre":"割烹","note":"人形町の隠れ名店として再発掘","date":"2026-05-30","lat":35.6828,"lng":139.7819},{"name":"酒場カミナリ","area":"高円寺","genre":"大衆酒場","note":"生牡蠣299円で話題の高コスパ","date":"2026-05-30","lat":35.7058,"lng":139.6489},{"name":"焼肉 牛8","area":"三軒茶屋","genre":"和牛焼肉","note":"上質な和牛を普段使い価格で","date":"2026-05-30","lat":35.6437,"lng":139.671},{"name":"白鶏舎","area":"笹塚","genre":"鶏料理","note":"昼ラーメン夜焼手羽の二毛作","date":"2026-05-30","lat":35.6698,"lng":139.6598},{"name":"鮨 上ル","area":"高輪ゲートウェイ","genre":"江戸前寿司","note":"食べ比べ×知的体験の次世代寿司","date":"2026-05-30","lat":35.6309,"lng":139.7415},{"name":"魚群 GYOGUN","area":"高田馬場","genre":"海鮮居酒屋","note":"産地直送魚介×クラフトビール","date":"2026-05-30","lat":35.7122,"lng":139.7036},{"name":"シアモ ノイ","area":"東京","genre":"イタリア料理","note":"自家栽培ハーブ・調味料自製ミシュラン","date":"2026-05-30","lat":35.6812,"lng":139.7671},{"name":"サンカ","area":"東京","genre":"フランス料理","note":"ミシュラン選出 素材×ソース×ワイン","date":"2026-05-30","lat":35.7087928,"lng":139.7582348},{"name":"お寅","area":"東京","genre":"日本料理","note":"ミシュラン選出 旬を10日単位で表現","date":"2026-05-30","lat":35.6812,"lng":139.7671},{"name":"ペルテ","area":"東京","genre":"ピッツァ","note":"ミシュラン選出 コース形式の創作ピッツァ","date":"2026-05-30","lat":35.6812,"lng":139.7671},{"name":"焼鳥 にしき","area":"東京","genre":"焼鳥","note":"ミシュラン選出 地鶏×鰹だしのお椀","date":"2026-05-30","lat":35.6812,"lng":139.7671},{"name":"慈雨","area":"東京","genre":"フレンチ","note":"ミシュラン選出 薪火だけのフレンチ","date":"2026-05-30","lat":35.660176,"lng":139.7638239},{"name":"ヴァンカ","area":"東京","genre":"現代風料理","note":"ミシュラン選出 鰹節×薪火の和仏融合","date":"2026-05-30","lat":35.6812,"lng":139.7671},{"name":"Brussels Fries（ブリュッセルフライ）","area":"新宿（新大久保）","station":"新大久保駅 徒歩5分","genre":"ベルギー式フライドポテト専門店","price_lunch":null,"price_dinner":"600円〜1,400円","open_date":"2025-12-01","official_url":"https://www.instagram.com/brussels_fries_jp/","michelin":null,"section":"buzz","date":"2026-06-05"},{"name":"amam dacotan cafe\u0026bake 表参道","area":"表参道（南青山）","station":"表参道駅 B2出口 徒歩1分","genre":"ベーカリーカフェ","price_lunch":"300円〜800円","price_dinner":null,"open_date":"2025-12-06","official_url":"https://amamdacotan.com/","michelin":null,"section":"buzz","date":"2026-06-05"},{"name":"珈琲所 コメダ珈琲店 KITTE大阪店","area":"大阪（梅田）","station":"JR大阪駅 直結（KITTE大阪内）","genre":"カフェ・喫茶","price_lunch":"540円〜","price_dinner":null,"open_date":"2026-06-12","official_url":"https://osaka.jp-kitte.jp/","michelin":null,"section":"new_open","date":"2026-06-05"},{"name":"明寂（Myojaku）","area":"東京（港区）","station":"非公開","genre":"日本料理","price_lunch":null,"price_dinner":"要問合せ","open_date":null,"official_url":"https://guide.michelin.com/us/en/tokyo-region/tokyo/restaurant/myojaku","michelin":"三つ星（ミシュランガイド東京2026）","section":"michelin","date":"2026-06-05"},{"name":"スイーツパラダイス 新宿東口店","area":"新宿","station":"新宿駅 東口 徒歩2分","genre":"コラボカフェ・スイーツバイキング","price_lunch":"1,980円〜","price_dinner":"2,200円〜","open_date":null,"official_url":"https://www.sweets-paradise.jp/collaboration/gintama2026","michelin":null,"section":"limited","limited_end":"2026-06-29","date":"2026-06-05"},{"name":"PIZZERIA CANTERA","area":"原宿","station":"明治神宮前","genre":"薪窯ナポリピッツァ","price_lunch":"2000円〜","price_dinner":null,"source_grade":"A","source_url":"https://omoharareal.com/navi/news/detail/3835","category":"バズりグルメ","address":"東京都渋谷区神宮前1-7-1 Q plaza HARAJUKU 9F","date":"2026-06-19"},{"name":"ハンバーグ 嘉","area":"原宿","station":"原宿","genre":"ハンバーグ専門","price_lunch":"1500円〜","price_dinner":null,"source_grade":"A","source_url":"https://omoharareal.com/navi/news/detail/3835","category":"バズりグルメ","date":"2026-06-19"},{"name":"BASSANOVA","area":"原宿","station":"原宿","genre":"ラーメン","price_lunch":"1300円〜","price_dinner":"1300円〜","source_grade":"A","source_url":"https://omoharareal.com/navi/news/detail/3835","category":"バズりグルメ","date":"2026-06-19"},{"name":"韓国ダイニング まにぽぽ","area":"大阪 梅田","station":"大阪/梅田","genre":"韓国料理","open_date":"2026-06-11","source_grade":"S","source_url":"https://prtimes.jp/main/html/rd/p/000000033.000078241.html","category":"新規オープン","address":"大阪府大阪市北区 グラングリーン大阪南館B1F タイムアウトマーケット大阪","date":"2026-06-19"},{"name":"蓮華","area":"渋谷","station":"渋谷","genre":"中国料理","open_date":"2026年（詳細確認中）","source_grade":"S","source_url":"https://magazine.tabelog.com/articles/482622","category":"新規オープン","lat":35.6691632,"lng":139.6206959,"date":"2026-06-19"},{"name":"mærge","area":"表参道","station":"表参道","genre":"フランス料理","open_date":"2026年（詳細確認中）","source_grade":"S","source_url":"https://magazine.tabelog.com/articles/482622","category":"新規オープン","date":"2026-06-19"},{"name":"Siamo noi","area":"自由が丘","station":"自由が丘","genre":"イタリアン","open_date":"2026年（詳細確認中）","source_grade":"S","source_url":"https://magazine.tabelog.com/articles/482622","category":"新規オープン","date":"2026-06-19"},{"name":"明寂","area":"東京","station":"確認中","genre":"日本料理","michelin":"三つ星（ミシュランガイド東京2026）","source_grade":"S","source_url":"https://prtimes.jp/main/html/rd/p/000000059.000117133.html","category":"ミシュラン","lat":35.6364632,"lng":139.7901005,"date":"2026-06-19"},{"name":"西麻布 鮨 真","area":"西麻布","station":"六本木","genre":"すし","michelin":"二つ星（ミシュランガイド東京2026）","source_grade":"S","source_url":"https://gourmet.watch.impress.co.jp/docs/news/2050118.html","category":"ミシュラン","date":"2026-06-19"},{"name":"ナイトマーケット","area":"東京","station":"確認中","genre":"東南アジア料理","michelin":"ビブグルマン（ミシュランガイド東京2026）","source_grade":"S","source_url":"https://guide.michelin.com/us/en/article/michelin-guide-ceremony/michelin-guide-tokyo-2026-bib-gourmand","category":"ミシュラン","date":"2026-06-19"},{"name":"韓国食堂\u0026カフェ LUNA","area":"新大久保","station":"新大久保駅","genre":"韓国料理・カフェ","price_lunch":"1958","price_dinner":"2000","address":"東京都新宿区大久保1-16-13 SHKビル2F","url":"","category":"バズりグルメ","date":"2026-06-26"},{"name":"ピエール・エルメ・パリ 丸の内","area":"丸の内","station":"東京駅","genre":"パティスリー・カフェ","price_lunch":"1000","price_dinner":"-","address":"東京都千代田区丸の内3-2-3 二重橋スクエア1F","url":"https://www.pierreherme.co.jp/boutique/marunouchi/","open_date":"2026-06-13","category":"新規オープン","date":"2026-06-26"},{"name":"海鮮市場 八芳 上野店","area":"上野","station":"上野駅","genre":"しゃぶしゃぶ・浜焼き・海鮮","price_lunch":"3000","price_dinner":"4000","address":"東京都台東区上野4-7-8 アメ横センタービル2F","url":"https://happo-ueno.owst.jp/","open_date":"2026-06-15","category":"新規オープン","date":"2026-06-26"},{"name":"伯雲（Hakuun）","area":"東京","station":"-","genre":"日本料理","price_lunch":"-","price_dinner":"-","address":"-","url":"https://guide.michelin.com/us/en/article/michelin-guide-ceremony/michelin-guide-tokyo-2026-stars-reveal","category":"ミシュラン","date":"2026-06-26"},{"name":"MOMO（モモ）","area":"新大久保","station":"新大久保駅","genre":"ネパール料理","price_lunch":"1350","price_dinner":"2000","address":"東京都新宿区新大久保","url":"https://tabelog.com/en/tokyo/A1304/A130404/13104607/","category":"トレンドフード","date":"2026-06-26"},{"name":"MOMO Stand Tokyo 2nd","area":"新宿","station":"新宿駅","genre":"ネパール料理（モダン）","price_lunch":"2000","price_dinner":"3000","address":"東京都新宿区西新宿","url":"","category":"トレンドフード","date":"2026-06-26"},{"name":"セクワガル","area":"大久保","station":"大久保駅","genre":"ネパール料理","price_lunch":"1500","price_dinner":"2500","address":"東京都新宿区大久保","url":"","category":"トレンドフード","lat":35.7019861,"lng":139.692744,"date":"2026-06-26"}]}